prefectures:
  - name: 北海道
    lat: 43.06171
    lng: 141.35062
  - name: 青森県
    lat: 40.82175
    lng: 140.74353
  - name: 岩手県
    lat: 39.70079
    lng: 141.15601
  - name: 宮城県
    lat: 38.26592
    lng: 140.87536
  - name: 秋田県
    lat: 39.71581
    lng: 140.10592
  - name: 山形県
    lat: 38.2376
    lng: 140.36671
  - name: 福島県
    lat: 37.74698
    lng: 140.47114
  - name: 茨城県
    lat: 36.33822
    lng: 140.44997
  - name: 栃木県
    lat: 36.5627
    lng: 139.88687
  - name: 群馬県
    lat: 36.38797
    lng: 139.06401
  - name: 埼玉県
    lat: 35.85373
    lng: 139.6521
  - name: 千葉県
    lat: 35.60148
    lng: 140.12657
  - name: 東京都
    lat: 35.68622
    lng: 139.69487
  - name: 神奈川県
    lat:   35.44453
    lng: 139.64569
  - name: 新潟県
    lat: 37.89924
    lng: 139.02686
  - name: 富山県
    lat: 36.69221
    lng: 137.21443
  - name: 石川県
    lat: 36.59137
    lng: 136.62855
  - name: 福井県
    lat: 36.06216
    lng: 136.22487
  - name: 山梨県
    lat: 35.66068
    lng: 138.57144
  - name: 長野県
    lat: 36.64829
    lng: 138.18423
  - name: 岐阜県
    lat: 35.38791
    lng: 136.72516
  - name: 静岡県
    lat: 34.97366
    lng: 138.38612
  - name: 愛知県
    lat: 34.97038
    lng: 138.38918
  - name: 三重県
    lat: 34.72701
    lng: 136.51151
  - name: 滋賀県
    lat: 35.00121
    lng: 135.87118
  - name: 京都府
    lat: 35.01816
    lng: 135.75841
  - name: 大阪府
    lat: 34.68313
    lng: 135.52281
  - name: 兵庫県
    lat: 34.68814
    lng: 135.18584
  - name: 奈良県
    lat: 34.68202
    lng: 135.83562
  - name: 和歌山県
    lat:   34.22281
    lng: 135.17026
  - name: 鳥取県
    lat: 35.50046
    lng: 134.24107
  - name: 島根県
    lat: 35.46909
    lng: 133.0532
  - name: 岡山県
    lat: 34.65844
    lng: 133.93768
  - name: 広島県
    lat: 34.39315
    lng: 132.46198
  - name: 山口県
    lat: 34.18259
    lng: 131.47384
  - name: 徳島県
    lat: 34.06252
    lng: 134.56214
  - name: 香川県
    lat: 34.33701
    lng: 134.046
  - name: 愛媛県
    lat: 33.83837
    lng: 132.76865
  - name: 高知県
    lat: 33.55638
    lng: 133.5337
  - name: 福岡県
    lat: 33.55303
    lng: 133.53629
  - name: 佐賀県
    lat: 33.24612
    lng: 130.3012
  - name: 長崎県
    lat: 32.74135
    lng: 129.87586
  - name: 熊本県
    lat: 32.78634
    lng: 130.744
  - name: 大分県
    lat: 33.23471
    lng: 131.61492
  - name: 宮崎県
    lat: 31.90763
    lng: 131.42623
  - name: 鹿児島
    lat:   31.55677
    lng: 130.56031
  - name: 沖縄県
    lat: 26.20847
    lng: 127.68288
